[
  {
    "name": "Stubaier Alpen",
    "slug": "stubaier-alpen",
    "bounds": { "minLat": 46.95, "minLng": 11.05, "maxLat": 47.15, "maxLng": 11.45 },
    "center": { "lat": 47.05, "lng": 11.25 },
    "huts": [
      {
        "osmId": 271592753,
        "name": "Innsbrucker Hütte",
        "altitude": 2369,
        "lat": 47.0486,
        "lng": 11.4097,
        "capacity": 80,
        "operator": "DAV Sektion Innsbruck",
        "website": "https://www.innsbrucker-huette.at",
        "phone": "+43 664 1110730",
        "email": null,
        "openingHours": "Jun-Oct",
        "description": "Ausgangspunkt für Habicht (3277m) und Stubaier Höhenweg",
        "imageUrl": "https://upload.wikimedia.org/wikipedia/commons/thumb/4/47/Innsbrucker_H%C3%BCtte_von_S%C3%BCden.jpg/400px-Innsbrucker_H%C3%BCtte_von_S%C3%BCden.jpg",
        "wikidataId": "Q1660020"
      },
      {
        "osmId": 271592801,
        "name": "Bremer Hütte",
        "altitude": 2413,
        "lat": 47.0361,
        "lng": 11.3903,
        "capacity": 60,
        "operator": "DAV Sektion Bremen",
        "website": "https://www.bremerhuette.at",
        "phone": "+43 664 3426800",
        "email": null,
        "openingHours": "Jun-Sep",
        "description": "Station am Stubaier Höhenweg zwischen Innsbrucker und Nürnberger Hütte",
        "imageUrl": "https://upload.wikimedia.org/wikipedia/commons/thumb/4/4f/Bremer_H%C3%BCtte_Stubai.jpg/400px-Bremer_H%C3%BCtte_Stubai.jpg",
        "wikidataId": "Q886205"
      },
      {
        "osmId": 271592812,
        "name": "Nürnberger Hütte",
        "altitude": 2280,
        "lat": 47.0219,
        "lng": 11.3647,
        "capacity": 110,
        "operator": "DAV Sektion Nürnberg",
        "website": "https://www.nuernberger-huette.at",
        "phone": "+43 5226 2432",
        "email": null,
        "openingHours": "Jun-Sep",
        "description": "Große Hütte am Stubaier Höhenweg, Tor zur Stubaier Wildnis",
        "imageUrl": "https://upload.wikimedia.org/wikipedia/commons/thumb/e/e2/N%C3%BCrnberger_H%C3%BCtte_2280m.jpg/400px-N%C3%BCrnberger_H%C3%BCtte_2280m.jpg",
        "wikidataId": "Q1992735"
      },
      {
        "osmId": 271592823,
        "name": "Sulzenau Hütte",
        "altitude": 2191,
        "lat": 47.0258,
        "lng": 11.3378,
        "capacity": 90,
        "operator": "DAV Sektion Frankfurt/Main",
        "website": "https://www.sulzenauhuette.at",
        "phone": "+43 664 4120638",
        "email": null,
        "openingHours": "Jun-Sep",
        "description": "Am Sulzenauferner mit Blick auf Zuckerhütl und Wilder Freiger",
        "imageUrl": "https://upload.wikimedia.org/wikipedia/commons/thumb/0/0e/Sulzenau-H%C3%BCtte.jpg/400px-Sulzenau-H%C3%BCtte.jpg",
        "wikidataId": "Q2362830"
      },
      {
        "osmId": 271592834,
        "name": "Dresdner Hütte",
        "altitude": 2308,
        "lat": 47.0392,
        "lng": 11.3064,
        "capacity": 180,
        "operator": "DAV Sektion Dresden",
        "website": "https://www.dresdnerhuette.at",
        "phone": "+43 5226 8112",
        "email": null,
        "openingHours": "ganzjährig",
        "description": "Größte Hütte im Stubaital, an der Bergstation Stubaier Gletscher",
        "imageUrl": "https://upload.wikimedia.org/wikipedia/commons/thumb/2/21/Dresdner_H%C3%BCtte.jpg/400px-Dresdner_H%C3%BCtte.jpg",
        "wikidataId": "Q1262020"
      },
      {
        "osmId": 271592845,
        "name": "Neue Regensburger Hütte",
        "altitude": 2286,
        "lat": 47.0450,
        "lng": 11.2756,
        "capacity": 80,
        "operator": "DAV Sektion Regensburg",
        "website": "https://www.neueregensburgerhuette.at",
        "phone": "+43 664 2050085",
        "email": null,
        "openingHours": "Jun-Sep",
        "description": "Aussichtsreich am Stubaier Höhenweg mit Blick auf Falbesoner Tal",
        "imageUrl": "https://upload.wikimedia.org/wikipedia/commons/thumb/b/b0/Neue_Regensburger_H%C3%BCtte.jpg/400px-Neue_Regensburger_H%C3%BCtte.jpg",
        "wikidataId": "Q1987097"
      },
      {
        "osmId": 271592856,
        "name": "Franz-Senn-Hütte",
        "altitude": 2147,
        "lat": 47.0553,
        "lng": 11.2428,
        "capacity": 190,
        "operator": "OeAV Sektion Innsbruck",
        "website": "https://www.franzsennhuette.at",
        "phone": "+43 5226 2218",
        "email": "info@franzsennhuette.at",
        "openingHours": "Feb-Apr, Jun-Oct",
        "description": "Größte Hütte der Stubaier Alpen, beliebter Kletter- und Tourenstützpunkt",
        "imageUrl": "https://upload.wikimedia.org/wikipedia/commons/thumb/3/33/Franz-Senn-H%C3%BCtte_Aug_2006.jpg/400px-Franz-Senn-H%C3%BCtte_Aug_2006.jpg",
        "wikidataId": "Q1448035"
      },
      {
        "osmId": 271592867,
        "name": "Starkenburger Hütte",
        "altitude": 2237,
        "lat": 47.0889,
        "lng": 11.3017,
        "capacity": 60,
        "operator": "DAV Sektion Starkenburger",
        "website": "https://www.starkenburgerhuette.at",
        "phone": "+43 664 1404517",
        "email": null,
        "openingHours": "Jun-Okt",
        "description": "Panorama-Hütte hoch über Neustift, Stubaier Höhenweg Etappe 1",
        "imageUrl": "https://upload.wikimedia.org/wikipedia/commons/thumb/5/53/Starkenburger_H%C3%BCtte.jpg/400px-Starkenburger_H%C3%BCtte.jpg",
        "wikidataId": "Q2328260"
      },
      {
        "osmId": 271592878,
        "name": "Elferhütte",
        "altitude": 2080,
        "lat": 47.0850,
        "lng": 11.3108,
        "capacity": 30,
        "operator": "Privat",
        "website": "https://www.elferhuette.at",
        "phone": "+43 5226 2818",
        "email": null,
        "openingHours": "Jun-Okt",
        "description": "Private Hütte am Elfer, Start/Ziel Stubaier Höhenweg",
        "imageUrl": null,
        "wikidataId": null
      },
      {
        "osmId": 271592889,
        "name": "Hildesheimer Hütte",
        "altitude": 2899,
        "lat": 46.9953,
        "lng": 11.2686,
        "capacity": 64,
        "operator": "DAV Sektion Hildesheim",
        "website": "https://www.hildesheimer-huette.it",
        "phone": "+39 0473 662036",
        "email": null,
        "openingHours": "Jun-Sep",
        "description": "Höchstgelegene Hütte am Stubaier Höhenweg, an der Grenze zu Südtirol",
        "imageUrl": "https://upload.wikimedia.org/wikipedia/commons/thumb/7/76/Hildesheimer_H%C3%BCtte_by_Cicielle.jpg/400px-Hildesheimer_H%C3%BCtte_by_Cicielle.jpg",
        "wikidataId": "Q1616755"
      },
      {
        "osmId": 271592890,
        "name": "Siegerlandhütte",
        "altitude": 2710,
        "lat": 46.9886,
        "lng": 11.2992,
        "capacity": 50,
        "operator": "DAV Sektion Siegerland",
        "website": "https://www.siegerlandhuette.com",
        "phone": "+39 0473 662070",
        "email": "info@siegerlandhuette.de",
        "openingHours": "Jun-Sep",
        "description": "Hütte im Windachtal in den Ötztaler-Stubaier Grenzbergen",
        "imageUrl": null,
        "wikidataId": "Q2283287"
      },
      {
        "osmId": 271592901,
        "name": "Amberger Hütte",
        "altitude": 2135,
        "lat": 47.0217,
        "lng": 11.1344,
        "capacity": 70,
        "operator": "DAV Sektion Amberg",
        "website": "https://www.ambergerhuette.at",
        "phone": "+43 5253 5518",
        "email": "info@ambergerhuette.at",
        "openingHours": "Jun-Okt",
        "description": "Ruhig gelegene Hütte im Sulztal, Ausgangspunkt für Schrankogel",
        "imageUrl": "https://upload.wikimedia.org/wikipedia/commons/thumb/a/a5/Amberger_H%C3%BCtte_im_Sulztal.jpg/400px-Amberger_H%C3%BCtte_im_Sulztal.jpg",
        "wikidataId": "Q421032"
      },
      {
        "osmId": 271592912,
        "name": "Westfalenhaus",
        "altitude": 2276,
        "lat": 47.0272,
        "lng": 11.1603,
        "capacity": 46,
        "operator": "DAV Sektion Westfalen",
        "website": "https://www.westfalenhaus.at",
        "phone": "+43 5253 5270",
        "email": null,
        "openingHours": "Jun-Okt",
        "description": "Gemütliche Hütte im Lüsenstal am Stubaier Höhenweg",
        "imageUrl": null,
        "wikidataId": "Q2567620"
      },
      {
        "osmId": 271592923,
        "name": "Pforzheimer Hütte",
        "altitude": 2308,
        "lat": 47.0464,
        "lng": 11.1800,
        "capacity": 60,
        "operator": "DAV Sektion Pforzheim",
        "website": "https://www.pforzheimer-huette.at",
        "phone": "+43 664 4008990",
        "email": null,
        "openingHours": "Jun-Sep",
        "description": "Hütte im Gleirschtal, Verbindung zwischen Sellrain- und Stubaital",
        "imageUrl": null,
        "wikidataId": "Q2083143"
      },
      {
        "osmId": 271592934,
        "name": "Mannheimer Hütte (Stubai)",
        "altitude": 2679,
        "lat": 47.0047,
        "lng": 11.3219,
        "capacity": 40,
        "operator": "DAV Sektion Mannheim",
        "website": null,
        "phone": "+43 664 4508927",
        "email": null,
        "openingHours": "Jul-Sep",
        "description": "Kleine Hütte am Stubaier Höhenweg zwischen Sulzenau und Dresdner Hütte",
        "imageUrl": null,
        "wikidataId": null
      }
    ]
  },
  {
    "name": "Zillertaler Alpen",
    "slug": "zillertal",
    "bounds": { "minLat": 46.90, "minLng": 11.65, "maxLat": 47.20, "maxLng": 12.10 },
    "center": { "lat": 47.05, "lng": 11.88 },
    "huts": [
      {
        "osmId": 358712001,
        "name": "Berliner Hütte",
        "altitude": 2042,
        "lat": 47.0375,
        "lng": 11.8108,
        "capacity": 180,
        "operator": "DAV Sektion Berlin",
        "website": "https://www.berlinerhuette.at",
        "phone": "+43 5286 5223",
        "email": null,
        "openingHours": "Jun-Okt",
        "description": "Denkmalgeschützte Hütte im Zillertal, Etappe am Berliner Höhenweg",
        "imageUrl": "https://upload.wikimedia.org/wikipedia/commons/thumb/3/38/Berliner_H%C3%BCtte_2006.jpg/400px-Berliner_H%C3%BCtte_2006.jpg",
        "wikidataId": "Q815293"
      },
      {
        "osmId": 358712012,
        "name": "Greizer Hütte",
        "altitude": 2227,
        "lat": 47.0264,
        "lng": 11.8322,
        "capacity": 88,
        "operator": "DAV Sektion Greiz",
        "website": "https://www.greizerhuette.at",
        "phone": "+43 5286 5222",
        "email": null,
        "openingHours": "Jun-Sep",
        "description": "Etappe am Berliner Höhenweg mit Blick auf Großen Löffler",
        "imageUrl": "https://upload.wikimedia.org/wikipedia/commons/thumb/7/79/Greizer_H%C3%BCtte_Zillertaler_Alpen.jpg/400px-Greizer_H%C3%BCtte_Zillertaler_Alpen.jpg",
        "wikidataId": "Q1545570"
      },
      {
        "osmId": 358712023,
        "name": "Kasseler Hütte",
        "altitude": 2178,
        "lat": 47.0322,
        "lng": 11.8614,
        "capacity": 80,
        "operator": "DAV Sektion Kassel",
        "website": "https://www.kasselerhuette.at",
        "phone": "+43 5286 5248",
        "email": null,
        "openingHours": "Jun-Sep",
        "description": "Hütte am Berliner Höhenweg mit großartiger Aussicht auf Stillupptal",
        "imageUrl": "https://upload.wikimedia.org/wikipedia/commons/thumb/6/6f/Kasseler_H%C3%BCtte.jpg/400px-Kasseler_H%C3%BCtte.jpg",
        "wikidataId": "Q1736168"
      },
      {
        "osmId": 358712034,
        "name": "Olperer Hütte",
        "altitude": 2389,
        "lat": 47.0178,
        "lng": 11.7008,
        "capacity": 70,
        "operator": "DAV Sektion Neumarkt/Oberpfalz",
        "website": "https://www.olpererhuette.de",
        "phone": "+43 664 1310710",
        "email": null,
        "openingHours": "Jun-Okt",
        "description": "Moderne Hütte am Schlegeisspeicher, beliebtes Fotomotiv (Brücke)",
        "imageUrl": "https://upload.wikimedia.org/wikipedia/commons/thumb/7/7b/Olperer_H%C3%BCtte_im_Zillertal.jpg/400px-Olperer_H%C3%BCtte_im_Zillertal.jpg",
        "wikidataId": "Q2016854"
      },
      {
        "osmId": 358712045,
        "name": "Furtschaglhaus",
        "altitude": 2295,
        "lat": 47.0103,
        "lng": 11.7519,
        "capacity": 80,
        "operator": "DAV Sektion Berlin",
        "website": "https://www.furtschaglhaus.at",
        "phone": "+43 5286 5235",
        "email": null,
        "openingHours": "Jun-Sep",
        "description": "Etappe am Berliner Höhenweg, nah am Schlegeisspeicher",
        "imageUrl": "https://upload.wikimedia.org/wikipedia/commons/thumb/f/f0/Furtschaglhaus_2295m.jpg/400px-Furtschaglhaus_2295m.jpg",
        "wikidataId": "Q1477025"
      },
      {
        "osmId": 358712056,
        "name": "Friesenberghaus",
        "altitude": 2498,
        "lat": 47.0206,
        "lng": 11.7264,
        "capacity": 60,
        "operator": "DAV Sektion Berlin",
        "website": "https://www.friesenberghaus.at",
        "phone": "+43 5286 5230",
        "email": null,
        "openingHours": "Jun-Sep",
        "description": "Höchste DAV-Hütte am Berliner Höhenweg",
        "imageUrl": null,
        "wikidataId": "Q1464125"
      },
      {
        "osmId": 358712067,
        "name": "Gamshütte",
        "altitude": 1921,
        "lat": 47.0822,
        "lng": 11.8781,
        "capacity": 40,
        "operator": "DAV Sektion Otterfing",
        "website": "https://www.gamshuette.at",
        "phone": "+43 5282 2259",
        "email": null,
        "openingHours": "Jun-Okt",
        "description": "Einstiegshütte am Berliner Höhenweg von Finkenberg aus",
        "imageUrl": null,
        "wikidataId": "Q1492483"
      },
      {
        "osmId": 358712078,
        "name": "Karl-von-Edel-Hütte",
        "altitude": 2238,
        "lat": 47.0483,
        "lng": 11.8397,
        "capacity": 100,
        "operator": "DAV Sektion Würzburg",
        "website": "https://www.karledel.at",
        "phone": "+43 5286 5214",
        "email": null,
        "openingHours": "Jun-Okt",
        "description": "Große Hütte oberhalb Mayrhofen am Berliner Höhenweg",
        "imageUrl": "https://upload.wikimedia.org/wikipedia/commons/thumb/5/55/Karl-von-Edel-H%C3%BCtte.jpg/400px-Karl-von-Edel-H%C3%BCtte.jpg",
        "wikidataId": "Q1731133"
      },
      {
        "osmId": 358712089,
        "name": "Plauener Hütte",
        "altitude": 2364,
        "lat": 47.0639,
        "lng": 11.9303,
        "capacity": 48,
        "operator": "DAV Sektion Plauen-Vogtland",
        "website": null,
        "phone": "+43 664 1617247",
        "email": null,
        "openingHours": "Jun-Sep",
        "description": "Ruhig gelegene Hütte im Zillergrund am Berliner Höhenweg",
        "imageUrl": null,
        "wikidataId": "Q2093741"
      }
    ]
  }
]
